{"CAB":
{"name":
 "CABA", "lng":
-58.38159310000003,"lat":
-34.6037232},"BUE":
{"name":
 "Buenos Aires", "lng":
-59.84106969999999,"lat":
-37.2017285},"CAT":
{"name":
 "Catamarca", "lng":
-66.99880109999998,"lat":
-27.0763912},"CBA":
{"name":
 "Córdoba", "lng":
-63.580610999999976,"lat":
-32.2968402},"CHA":
{"name":
 "Chaco", "lng":
-60.9540073,"lat":
-26.5857656},"CHU":
{"name":
"Chubut", "lng":
-69.27455370000001,"lat":
-43.6846192},"COR":
{"name":
 "Corrientes", "lng":
-58.00719220000002,"lat":
-28.5841599},"FOR":
{"name":
 "Formosa", "lng":
-58.73736339999999,"lat":
-25.3945969},"JUJ":
{"name":
 "Jujuy", "lng":
-66.23671719999999,"lat":
-22.6633212},"LAP":
{"name":
 "La Pampa", "lng":
-65.09577919999998,"lat":
-37.8956594},"MZA":
{"name":
 "Mendoza", "lng":
-68.14314139999999,"lat":
-34.5869034},"MIS":
{"name":
 "Misiones", "lng":
-54.43421380000001,"lat":
-26.9377146},"SJU":
{"name":
 "San Juan", "lng":
-68.52471489999999,"lat":
-30.8724587},"SCR":
{"name":
 "Santa Cruz", "lng":
-69.19171670000003,"lat":
-48.7736825},"LRJ":
{"name":
 "La Rioja", "lng":
-66.99880109999998,"lat":
-29.9001725},"SAL":
{"name":
 "Salta", "lng":
-64.71624150000002,"lat":
-25.2529539},"SLU":
{"name":
 "San Luis", "lng":
-66.23671719999999,"lat":
-33.8769018},"SFE":
{"name":
 "Santa Fe", "lng":
-60.58206759999996,"lat":
-30.24415339999999}, "SGO":
{"name":
 "Santiago del Estero", "lng":
-63.580610999999976,"lat":
-28.186577},"TDF":
{"name":
 "Tierra del Fuego", "lng":
-67.74515650000001,"lat":
-54.3083548},"TUC":
{"name":
 "Tucumán", "lng":
-65.28570819999999,"lat":
-26.9468463}, "NEU":
{"name":
 "Neuquen", "lng":
-69.66911859999999,"lat":
-38.8233843},"RNO":
{"name":
"Rio Negro", "lng":
-66.61764549999998,"lat":
-40.7344343},"ERI":
{"name":
 "Entre Rios", "lng":
-59.10417580000001,"lat":
-32.5175643}}
